[{"geometry": {"type": "Point", "coordinates": ["0.1609266", "48.0157803"]}, "type": "Feature", "properties": {"street": "22 RUE DU 33E MOBILES , 72000 Le Mans, France", "name": "01"}}, {"geometry": {"type": "Point", "coordinates": ["0.195881", "48.0075558"]}, "type": "Feature", "properties": {"street": "1 COUR D' ASSE , 72000 Le Mans, France", "name": "01"}}, {"geometry": {"type": "Point", "coordinates": ["0.1959022", "48.0075761"]}, "type": "Feature", "properties": {"street": "5 COUR D' ASSE , 72000 Le Mans, France", "name": "01"}}, {"geometry": {"type": "Point", "coordinates": ["0.1783182", "47.9943775"]}, "type": "Feature", "properties": {"street": "1 RUE DU BOUQUET , 72000 Le Mans, France", "name": "01"}}, {"geometry": {"type": "Point", "coordinates": ["0.1954229", "48.0082773"]}, "type": "Feature", "properties": {"street": "11 RUE DU BOUQUET , 72000 Le Mans, France", "name": "01"}}, {"geometry": {"type": "Point", "coordinates": ["0.1980264", "48.0097405"]}, "type": "Feature", "properties": {"street": "1 PLACE DU CARDINAL GRENTE , 72000 Le Mans, France", "name": "01"}}, {"geometry": {"type": "Point", "coordinates": ["0.1988917", "48.009532"]}, "type": "Feature", "properties": {"street": "24 PLACE DU CARDINAL GRENTE , 72000 Le Mans, France", "name": "01"}}, {"geometry": {"type": "Point", "coordinates": ["0.1966256", "48.0086162"]}, "type": "Feature", "properties": {"street": "1 RUE DES CHANOINES , 72000 Le Mans, France", "name": "01"}}, {"geometry": {"type": "Point", "coordinates": ["0.1979189", "48.0096398"]}, "type": "Feature", "properties": {"street": "34 RUE DES CHANOINES , 72000 Le Mans, France", "name": "01"}}, {"geometry": {"type": "Point", "coordinates": ["0.1963918", "48.0092064"]}, "type": "Feature", "properties": {"street": "1 RUE DES CHAPELAINS , 72000 Le Mans, France", "name": "01"}}, {"geometry": {"type": "Point", "coordinates": ["0.1972706", "48.0098943"]}, "type": "Feature", "properties": {"street": "8 RUE DES CHAPELAINS , 72000 Le Mans, France", "name": "01"}}, {"geometry": {"type": "Point", "coordinates": ["0.1988623", "48.0103517"]}, "type": "Feature", "properties": {"street": "1 RUE DU CHATEAU , 72000 Le Mans, France", "name": "01"}}, {"geometry": {"type": "Point", "coordinates": ["0.1991857", "48.0104798"]}, "type": "Feature", "properties": {"street": "5 RUE DU CHATEAU , 72000 Le Mans, France", "name": "01"}}, {"geometry": {"type": "Point", "coordinates": ["0.1983565", "48.0073876"]}, "type": "Feature", "properties": {"street": "1 RUE CLAUDE BLONDEAU , 72000 Le Mans, France", "name": "01"}}, {"geometry": {"type": "Point", "coordinates": ["0.198449", "48.0064171"]}, "type": "Feature", "properties": {"street": "26 RUE CLAUDE BLONDEAU , 72000 Le Mans, France", "name": "01"}}, {"geometry": {"type": "Point", "coordinates": ["0.1976128", "48.0077845"]}, "type": "Feature", "properties": {"street": "1 RUE DE LA COMEDIE , 72000 Le Mans, France", "name": "01"}}, {"geometry": {"type": "Point", "coordinates": ["0.1976128", "48.0077845"]}, "type": "Feature", "properties": {"street": "1 RUE DE LA COMEDIE , 72000 Le Mans, France", "name": "01"}}, {"geometry": {"type": "Point", "coordinates": ["0.1979167", "48.0111564"]}, "type": "Feature", "properties": {"street": "1 RUE DENFERT ROCHEREAU , 72000 Le Mans, France", "name": "01"}}, {"geometry": {"type": "Point", "coordinates": ["0.1994308", "48.0127696"]}, "type": "Feature", "properties": {"street": "102 RUE DENFERT ROCHEREAU , 72000 Le Mans, France", "name": "01"}}, {"geometry": {"type": "Point", "coordinates": ["0.197829", "48.0084207"]}, "type": "Feature", "properties": {"street": "1 RUE DU DOYENNE , 72000 Le Mans, France", "name": "01"}}, {"geometry": {"type": "Point", "coordinates": ["0.1983643", "48.0088069"]}, "type": "Feature", "properties": {"street": "9 RUE DU DOYENNE , 72000 Le Mans, France", "name": "01"}}, {"geometry": {"type": "Point", "coordinates": ["0.1968172", "48.0075349"]}, "type": "Feature", "properties": {"street": "1 RUE DE L' ECREVISSE , 72000 Le Mans, France", "name": "01"}}, {"geometry": {"type": "Point", "coordinates": ["0.1963222", "48.0079246"]}, "type": "Feature", "properties": {"street": "5 RUE DE L' ECREVISSE , 72000 Le Mans, France", "name": "01"}}, {"geometry": {"type": "Point", "coordinates": ["0.1985847", "48.0053967"]}, "type": "Feature", "properties": {"street": "1 RUE DE L' ETOILE , 72000 Le Mans, France", "name": "01"}}, {"geometry": {"type": "Point", "coordinates": ["0.2011933", "48.0056158"]}, "type": "Feature", "properties": {"street": "28 RUE DE L' ETOILE , 72000 Le Mans, France", "name": "01"}}, {"geometry": {"type": "Point", "coordinates": ["0.1972829", "48.0062073"]}, "type": "Feature", "properties": {"street": "1 RUE DES FALOTIERS , 72000 Le Mans, France", "name": "01"}}, {"geometry": {"type": "Point", "coordinates": ["0.1609266", "48.0157803"]}, "type": "Feature", "properties": {"street": "3 RUE DES FALOTIERS , 72000 Le Mans, France", "name": "01"}}, {"geometry": {"type": "Point", "coordinates": ["0.1981258", "48.0074857"]}, "type": "Feature", "properties": {"street": "1 SQUARE DES FILLES DIEU , 72000 Le Mans, France", "name": "01"}}, {"geometry": {"type": "Point", "coordinates": ["0.1981258", "48.0074857"]}, "type": "Feature", "properties": {"street": "1 SQUARE DES FILLES DIEU , 72000 Le Mans, France", "name": "01"}}, {"geometry": {"type": "Point", "coordinates": ["0.1969894", "48.0065854"]}, "type": "Feature", "properties": {"street": "1 RUE DES FOSSES SAINT PIERRE , 72000 Le Mans, France", "name": "01"}}, {"geometry": {"type": "Point", "coordinates": ["0.1969894", "48.0065854"]}, "type": "Feature", "properties": {"street": "3 RUE DES FOSSES SAINT PIERRE , 72000 Le Mans, France", "name": "01"}}, {"geometry": {"type": "Point", "coordinates": ["0.1949006", "48.0067294"]}, "type": "Feature", "properties": {"street": "1 RUE GODARD , 72000 Le Mans, France", "name": "01"}}, {"geometry": {"type": "Point", "coordinates": ["0.194923", "48.006749"]}, "type": "Feature", "properties": {"street": "8 RUE GODARD , 72000 Le Mans, France", "name": "01"}}, {"geometry": {"type": "Point", "coordinates": ["0.1957217", "48.0074048"]}, "type": "Feature", "properties": {"street": "1 RUE GRANDE RUE , 72000 Le Mans, France", "name": "01"}}, {"geometry": {"type": "Point", "coordinates": ["0.1957217", "48.0074048"]}, "type": "Feature", "properties": {"street": "41 RUE GRANDE RUE , 72000 Le Mans, France", "name": "01"}}, {"geometry": {"type": "Point", "coordinates": ["0.1971944", "48.0081485"]}, "type": "Feature", "properties": {"street": "1 PLACE DU HALLAI , 72000 Le Mans, France", "name": "01"}}, {"geometry": {"type": "Point", "coordinates": ["0.1971078", "48.0079749"]}, "type": "Feature", "properties": {"street": "5 PLACE DU HALLAI , 72000 Le Mans, France", "name": "01"}}, {"geometry": {"type": "Point", "coordinates": ["0.1968355", "48.0075467"]}, "type": "Feature", "properties": {"street": "1 RUE DU HALLAI , 72000 Le Mans, France", "name": "01"}}, {"geometry": {"type": "Point", "coordinates": ["0.1971944", "48.0081485"]}, "type": "Feature", "properties": {"street": "7 RUE DU HALLAI , 72000 Le Mans, France", "name": "01"}}, {"geometry": {"type": "Point", "coordinates": ["0.2007179", "48.0068685"]}, "type": "Feature", "properties": {"street": "1 RUE HEMON , 72000 Le Mans, France", "name": "01"}}, {"geometry": {"type": "Point", "coordinates": ["0.2001882", "48.0066831"]}, "type": "Feature", "properties": {"street": "7 RUE HEMON , 72000 Le Mans, France", "name": "01"}}, {"geometry": {"type": "Point", "coordinates": ["0.1992318", "48.0072696"]}, "type": "Feature", "properties": {"street": "1 PLACE DES JACOBINS , 72000 Le Mans, France", "name": "01"}}, {"geometry": {"type": "Point", "coordinates": ["0.1985576", "48.0074142"]}, "type": "Feature", "properties": {"street": "11 PLACE DES JACOBINS , 72000 Le Mans, France", "name": "01"}}, {"geometry": {"type": "Point", "coordinates": ["0.1992318", "48.0072696"]}, "type": "Feature", "properties": {"street": "1 RUE DES JACOBINS , 72000 Le Mans, France", "name": "01"}}, {"geometry": {"type": "Point", "coordinates": ["0.2034249", "48.0110312"]}, "type": "Feature", "properties": {"street": "8 RUE DES JACOBINS , 72000 Le Mans, France", "name": "01"}}, {"geometry": {"type": "Point", "coordinates": ["0.1986737", "48.012201"]}, "type": "Feature", "properties": {"street": "1 SQUARE JACQUES DUBOIS , 72000 Le Mans, France", "name": "01"}}, {"geometry": {"type": "Point", "coordinates": ["0.1971025", "48.0086942"]}, "type": "Feature", "properties": {"street": "12 SQUARE JACQUES DUBOIS , 72000 Le Mans, France", "name": "01"}}, {"geometry": {"type": "Point", "coordinates": ["0.1984709", "48.0064089"]}, "type": "Feature", "properties": {"street": "1 RUE JANKOWSKI , 72000 Le Mans, France", "name": "01"}}, {"geometry": {"type": "Point", "coordinates": ["0.1993092", "48.0052388"]}, "type": "Feature", "properties": {"street": "31 RUE JANKOWSKI , 72000 Le Mans, France", "name": "01"}}, {"geometry": {"type": "Point", "coordinates": ["0.1986323", "48.0087183"]}, "type": "Feature", "properties": {"street": "1 ESCALIER DU JET D'EAU , 72000 Le Mans, France", "name": "01"}}, {"geometry": {"type": "Point", "coordinates": ["0.1986323", "48.0087183"]}, "type": "Feature", "properties": {"street": "1 ESCALIER DU JET D'EAU , 72000 Le Mans, France", "name": "01"}}, {"geometry": {"type": "Point", "coordinates": ["0.1609266", "48.0157803"]}, "type": "Feature", "properties": {"street": "1 PLACE DU JET D'EAU , 72000 Le Mans, France", "name": "01"}}, {"geometry": {"type": "Point", "coordinates": ["0.1609266", "48.0157803"]}, "type": "Feature", "properties": {"street": "1 PLACE DU JET D'EAU , 72000 Le Mans, France", "name": "01"}}, {"geometry": {"type": "Point", "coordinates": ["0.2015981", "48.005691"]}, "type": "Feature", "properties": {"street": "1 PLACE LIONEL LE COUTEUX , 72000 Le Mans, France", "name": "01"}}, {"geometry": {"type": "Point", "coordinates": ["0.2015647", "48.0056805"]}, "type": "Feature", "properties": {"street": "5 PLACE LIONEL LE COUTEUX , 72000 Le Mans, France", "name": "01"}}, {"geometry": {"type": "Point", "coordinates": ["0.1985412", "48.0061045"]}, "type": "Feature", "properties": {"street": "1 RUE MARCHANDE , 72000 Le Mans, France", "name": "01"}}, {"geometry": {"type": "Point", "coordinates": ["0.1985484", "48.0059557"]}, "type": "Feature", "properties": {"street": "9 RUE MARCHANDE , 72000 Le Mans, France", "name": "01"}}, {"geometry": {"type": "Point", "coordinates": ["0.2001439", "48.0063565"]}, "type": "Feature", "properties": {"street": "1 RUE MONTAUBAN , 72000 Le Mans, France", "name": "01"}}, {"geometry": {"type": "Point", "coordinates": ["0.2006681", "48.0057757"]}, "type": "Feature", "properties": {"street": "17 RUE MONTAUBAN , 72000 Le Mans, France", "name": "01"}}, {"geometry": {"type": "Point", "coordinates": ["0.1972163", "48.0109655"]}, "type": "Feature", "properties": {"street": "1 RUE NICOLAS DENIZOT , 72000 Le Mans, France", "name": "01"}}, {"geometry": {"type": "Point", "coordinates": ["0.1972163", "48.0109655"]}, "type": "Feature", "properties": {"street": "1 RUE NICOLAS DENIZOT , 72000 Le Mans, France", "name": "01"}}, {"geometry": {"type": "Point", "coordinates": ["0.1976365", "48.0098049"]}, "type": "Feature", "properties": {"street": "1 ESCALIER DES PANS DE GORRON , 72000 Le Mans, France", "name": "01"}}, {"geometry": {"type": "Point", "coordinates": ["0.1976365", "48.0098049"]}, "type": "Feature", "properties": {"street": "1 ESCALIER DES PANS DE GORRON , 72000 Le Mans, France", "name": "01"}}, {"geometry": {"type": "Point", "coordinates": ["0.1971309", "48.0101165"]}, "type": "Feature", "properties": {"street": "1 RUE DES PANS DE GORRON , 72000 Le Mans, France", "name": "01"}}, {"geometry": {"type": "Point", "coordinates": ["0.1971972", "48.0101583"]}, "type": "Feature", "properties": {"street": "4 RUE DES PANS DE GORRON , 72000 Le Mans, France", "name": "01"}}, {"geometry": {"type": "Point", "coordinates": ["0.1948938", "48.0067325"]}, "type": "Feature", "properties": {"street": "1 RUE DU PETIT SAINT PIERRE , 72000 Le Mans, France", "name": "01"}}, {"geometry": {"type": "Point", "coordinates": ["0.1947968", "48.0068574"]}, "type": "Feature", "properties": {"street": "2 RUE DU PETIT SAINT PIERRE , 72000 Le Mans, France", "name": "01"}}, {"geometry": {"type": "Point", "coordinates": ["0.1609266", "48.0157803"]}, "type": "Feature", "properties": {"street": "1 ESCALIER DE LA PETITE POTERNE , 72000 Le Mans, France", "name": "01"}}, {"geometry": {"type": "Point", "coordinates": ["0.1609266", "48.0157803"]}, "type": "Feature", "properties": {"street": "1 ESCALIER DE LA PETITE POTERNE , 72000 Le Mans, France", "name": "01"}}, {"geometry": {"type": "Point", "coordinates": ["0.1609266", "48.0157803"]}, "type": "Feature", "properties": {"street": "1 ESCALIER DE LA PIERRE DE TUCE , 72000 Le Mans, France", "name": "01"}}, {"geometry": {"type": "Point", "coordinates": ["0.1609266", "48.0157803"]}, "type": "Feature", "properties": {"street": "5 ESCALIER DE LA PIERRE DE TUCE , 72000 Le Mans, France", "name": "01"}}, {"geometry": {"type": "Point", "coordinates": ["0.1996957", "48.0072241"]}, "type": "Feature", "properties": {"street": "1 AVENUE PIERRE MENDES FRANCE , 72000 Le Mans, France", "name": "01"}}, {"geometry": {"type": "Point", "coordinates": ["0.1995454", "48.0067961"]}, "type": "Feature", "properties": {"street": "20 AVENUE PIERRE MENDES FRANCE , 72000 Le Mans, France", "name": "01"}}, {"geometry": {"type": "Point", "coordinates": ["0.1972584", "48.0080465"]}, "type": "Feature", "properties": {"street": "1 RUE DU PILIER ROUGE , 72000 Le Mans, France", "name": "01"}}, {"geometry": {"type": "Point", "coordinates": ["0.197181", "48.0081413"]}, "type": "Feature", "properties": {"street": "7 RUE DU PILIER ROUGE , 72000 Le Mans, France", "name": "01"}}, {"geometry": {"type": "Point", "coordinates": ["0.1969916", "48.0073252"]}, "type": "Feature", "properties": {"street": "1 ESCALIER DES PONTS NEUFS , 72000 Le Mans, France", "name": "01"}}, {"geometry": {"type": "Point", "coordinates": ["0.1969916", "48.0073252"]}, "type": "Feature", "properties": {"street": "1 ESCALIER DES PONTS NEUFS , 72000 Le Mans, France", "name": "01"}}, {"geometry": {"type": "Point", "coordinates": ["0.1975145", "48.0070223"]}, "type": "Feature", "properties": {"street": "1 RUE DES PONTS NEUFS , 72000 Le Mans, France", "name": "01"}}, {"geometry": {"type": "Point", "coordinates": ["0.19846", "48.0064182"]}, "type": "Feature", "properties": {"street": "47 RUE DES PONTS NEUFS , 72000 Le Mans, France", "name": "01"}}, {"geometry": {"type": "Point", "coordinates": ["0.1980053", "48.0092409"]}, "type": "Feature", "properties": {"street": "1 RUE DE LA REINE BERENGERE , 72000 Le Mans, France", "name": "01"}}, {"geometry": {"type": "Point", "coordinates": ["0.1972187", "48.0086406"]}, "type": "Feature", "properties": {"street": "24 RUE DE LA REINE BERENGERE , 72000 Le Mans, France", "name": "01"}}, {"geometry": {"type": "Point", "coordinates": ["0.1976119", "48.0079055"]}, "type": "Feature", "properties": {"street": "1 RUE DU REMPART , 72000 Le Mans, France", "name": "01"}}, {"geometry": {"type": "Point", "coordinates": ["0.1980486", "48.0082429"]}, "type": "Feature", "properties": {"street": "9 RUE DU REMPART , 72000 Le Mans, France", "name": "01"}}, {"geometry": {"type": "Point", "coordinates": ["0.1965343", "48.0062269"]}, "type": "Feature", "properties": {"street": "1 AVENUE DE ROSTOV SUR LE DON , 72000 Le Mans, France", "name": "01"}}, {"geometry": {"type": "Point", "coordinates": ["0.1961065", "48.0058163"]}, "type": "Feature", "properties": {"street": "37 AVENUE DE ROSTOV SUR LE DON , 72000 Le Mans, France", "name": "01"}}, {"geometry": {"type": "Point", "coordinates": ["0.196476", "48.0074213"]}, "type": "Feature", "properties": {"street": "1 RUE SAINT FLACEAU , 72000 Le Mans, France", "name": "01"}}, {"geometry": {"type": "Point", "coordinates": ["0.1961762", "48.0071606"]}, "type": "Feature", "properties": {"street": "3 RUE SAINT FLACEAU , 72000 Le Mans, France", "name": "01"}}, {"geometry": {"type": "Point", "coordinates": ["0.1963611", "48.0073121"]}, "type": "Feature", "properties": {"street": "1 RUE SAINT HONORE , 72000 Le Mans, France", "name": "01"}}, {"geometry": {"type": "Point", "coordinates": ["0.1959797", "48.0075198"]}, "type": "Feature", "properties": {"street": "11 RUE SAINT HONORE , 72000 Le Mans, France", "name": "01"}}, {"geometry": {"type": "Point", "coordinates": ["0.1981508", "48.0089069"]}, "type": "Feature", "properties": {"street": "1 PLACE SAINT MICHEL , 72000 Le Mans, France", "name": "01"}}, {"geometry": {"type": "Point", "coordinates": ["0.1979711", "48.0094565"]}, "type": "Feature", "properties": {"street": "9 PLACE SAINT MICHEL , 72000 Le Mans, France", "name": "01"}}, {"geometry": {"type": "Point", "coordinates": ["0.1985968", "48.0053894"]}, "type": "Feature", "properties": {"street": "1 PLACE SAINT NICOLAS , 72000 Le Mans, France", "name": "01"}}, {"geometry": {"type": "Point", "coordinates": ["0.1984885", "48.0052875"]}, "type": "Feature", "properties": {"street": "6 PLACE SAINT NICOLAS , 72000 Le Mans, France", "name": "01"}}, {"geometry": {"type": "Point", "coordinates": ["0.1954351", "48.0077839"]}, "type": "Feature", "properties": {"street": "1 RUE SAINT PAVIN DE LA CITE , 72000 Le Mans, France", "name": "01"}}, {"geometry": {"type": "Point", "coordinates": ["0.1953695", "48.0071676"]}, "type": "Feature", "properties": {"street": "9 RUE SAINT PAVIN DE LA CITE , 72000 Le Mans, France", "name": "01"}}, {"geometry": {"type": "Point", "coordinates": ["0.1968136", "48.0071673"]}, "type": "Feature", "properties": {"street": "1 PLACE SAINT PIERRE , 72000 Le Mans, France", "name": "01"}}, {"geometry": {"type": "Point", "coordinates": ["0.196821", "48.0075402"]}, "type": "Feature", "properties": {"street": "13 PLACE SAINT PIERRE , 72000 Le Mans, France", "name": "01"}}, {"geometry": {"type": "Point", "coordinates": ["0.1992954", "48.0108285"]}, "type": "Feature", "properties": {"street": "1 PLACE SAINT VINCENT , 72000 Le Mans, France", "name": "01"}}, {"geometry": {"type": "Point", "coordinates": ["0.1990201", "48.0109816"]}, "type": "Feature", "properties": {"street": "5 PLACE SAINT VINCENT , 72000 Le Mans, France", "name": "01"}}, {"geometry": {"type": "Point", "coordinates": ["0.1972266", "48.008093"]}, "type": "Feature", "properties": {"street": "1 IMPASSE SAINTE CATHERINE , 72000 Le Mans, France", "name": "01"}}, {"geometry": {"type": "Point", "coordinates": ["0.1969068", "48.0079617"]}, "type": "Feature", "properties": {"street": "5 IMPASSE SAINTE CATHERINE , 72000 Le Mans, France", "name": "01"}}, {"geometry": {"type": "Point", "coordinates": ["0.1992931", "48.0052461"]}, "type": "Feature", "properties": {"street": "1 RUE SAINTE MARIE , 72000 Le Mans, France", "name": "01"}}, {"geometry": {"type": "Point", "coordinates": ["0.1992931", "48.0052461"]}, "type": "Feature", "properties": {"street": "1 RUE SAINTE MARIE , 72000 Le Mans, France", "name": "01"}}, {"geometry": {"type": "Point", "coordinates": ["0.1609266", "48.0157803"]}, "type": "Feature", "properties": {"street": "1 PLACE DE LA SIRENE , 72000 Le Mans, France", "name": "01"}}, {"geometry": {"type": "Point", "coordinates": ["0.1609266", "48.0157803"]}, "type": "Feature", "properties": {"street": "1 PLACE DE LA SIRENE , 72000 Le Mans, France", "name": "01"}}, {"geometry": {"type": "Point", "coordinates": ["0.1983386", "48.0109606"]}, "type": "Feature", "properties": {"street": "1 RUE DU TERTRE MAIGRET , 72000 Le Mans, France", "name": "01"}}, {"geometry": {"type": "Point", "coordinates": ["0.1985591", "48.0110607"]}, "type": "Feature", "properties": {"street": "8 RUE DU TERTRE MAIGRET , 72000 Le Mans, France", "name": "01"}}, {"geometry": {"type": "Point", "coordinates": ["0.2014769", "48.005081"]}, "type": "Feature", "properties": {"street": "1 SQUARE DES URSULINES , 72000 Le Mans, France", "name": "01"}}, {"geometry": {"type": "Point", "coordinates": ["0.2014769", "48.005081"]}, "type": "Feature", "properties": {"street": "1 SQUARE DES URSULINES , 72000 Le Mans, France", "name": "01"}}, {"geometry": {"type": "Point", "coordinates": ["0.1952618", "48.0081457"]}, "type": "Feature", "properties": {"street": "1 RUE DE VAUX , 72000 Le Mans, France", "name": "01"}}, {"geometry": {"type": "Point", "coordinates": ["0.1950341", "48.0079374"]}, "type": "Feature", "properties": {"street": "5 RUE DE VAUX , 72000 Le Mans, France", "name": "01"}}, {"geometry": {"type": "Point", "coordinates": ["0.1947741", "48.0077271"]}, "type": "Feature", "properties": {"street": "1 RUE DE LA VERRERIE , 72000 Le Mans, France", "name": "01"}}, {"geometry": {"type": "Point", "coordinates": ["0.1947971", "48.0076739"]}, "type": "Feature", "properties": {"street": "3 RUE DE LA VERRERIE , 72000 Le Mans, France", "name": "01"}}, {"geometry": {"type": "Point", "coordinates": ["0.1981466", "48.0079116"]}, "type": "Feature", "properties": {"street": "1 RUE WILBUR WRIGHT , 72000 Le Mans, France", "name": "01"}}, {"geometry": {"type": "Point", "coordinates": ["0.1981706", "48.0079304"]}, "type": "Feature", "properties": {"street": "2 RUE WILBUR WRIGHT , 72000 Le Mans, France", "name": "01"}}]