[{"geometry": {"type": "Point", "coordinates": ["0.1935088", "48.003321"]}, "type": "Feature", "properties": {"street": "25 RUE BARBIER , 72000 Le Mans, France", "name": "02"}}, {"geometry": {"type": "Point", "coordinates": ["0.198456", "48.0063894"]}, "type": "Feature", "properties": {"street": "1 RUE DE LA BARILLERIE , 72000 Le Mans, France", "name": "02"}}, {"geometry": {"type": "Point", "coordinates": ["0.1964843", "48.005569"]}, "type": "Feature", "properties": {"street": "24 RUE DE LA BARILLERIE , 72000 Le Mans, France", "name": "02"}}, {"geometry": {"type": "Point", "coordinates": ["0.1983533", "48.00536"]}, "type": "Feature", "properties": {"street": "1 RUE DE BOLTON , 72000 Le Mans, France", "name": "02"}}, {"geometry": {"type": "Point", "coordinates": ["0.1970317", "48.0046435"]}, "type": "Feature", "properties": {"street": "32 RUE DE BOLTON , 72000 Le Mans, France", "name": "02"}}, {"geometry": {"type": "Point", "coordinates": ["0.1952849", "48.0063837"]}, "type": "Feature", "properties": {"street": "2 ESCALIER DES BOUCHERIES , 72000 Le Mans, France", "name": "02"}}, {"geometry": {"type": "Point", "coordinates": ["0.1952849", "48.0063837"]}, "type": "Feature", "properties": {"street": "2 ESCALIER DES BOUCHERIES , 72000 Le Mans, France", "name": "02"}}, {"geometry": {"type": "Point", "coordinates": ["0.1953684", "48.0061356"]}, "type": "Feature", "properties": {"street": "2 RUE DES BOUCHERIES , 72000 Le Mans, France", "name": "02"}}, {"geometry": {"type": "Point", "coordinates": ["0.195508", "48.0059425"]}, "type": "Feature", "properties": {"street": "9 RUE DES BOUCHERIES , 72000 Le Mans, France", "name": "02"}}, {"geometry": {"type": "Point", "coordinates": ["0.1610392", "48.0190081"]}, "type": "Feature", "properties": {"street": "12 ALLEE DU BOURG D'ANGUY , 72000 Le Mans, France", "name": "02"}}, {"geometry": {"type": "Point", "coordinates": ["0.1984443", "48.0037028"]}, "type": "Feature", "properties": {"street": "2 ALLEE DU BOURG D'ANGUY , 72000 Le Mans, France", "name": "02"}}, {"geometry": {"type": "Point", "coordinates": ["0.1983656", "48.0036585"]}, "type": "Feature", "properties": {"street": "10 PASSAGE DU COMMERCE , 72000 Le Mans, France", "name": "02"}}, {"geometry": {"type": "Point", "coordinates": ["0.1977798", "48.0037674"]}, "type": "Feature", "properties": {"street": "3 PASSAGE DU COMMERCE , 72000 Le Mans, France", "name": "02"}}, {"geometry": {"type": "Point", "coordinates": ["0.2003153", "48.0048995"]}, "type": "Feature", "properties": {"street": "1 PLACE DES COMTES DU MAINE , 72000 Le Mans, France", "name": "02"}}, {"geometry": {"type": "Point", "coordinates": ["0.200825", "48.0049836"]}, "type": "Feature", "properties": {"street": "44 PLACE DES COMTES DU MAINE , 72000 Le Mans, France", "name": "02"}}, {"geometry": {"type": "Point", "coordinates": ["0.1957183", "48.0044443"]}, "type": "Feature", "properties": {"street": "1 RUE DU CORNET , 72000 Le Mans, France", "name": "02"}}, {"geometry": {"type": "Point", "coordinates": ["0.1953542", "48.0050638"]}, "type": "Feature", "properties": {"street": "20 RUE DU CORNET , 72000 Le Mans, France", "name": "02"}}, {"geometry": {"type": "Point", "coordinates": ["0.1984136", "48.0039043"]}, "type": "Feature", "properties": {"street": "1 RUE COURTHARDY , 72000 Le Mans, France", "name": "02"}}, {"geometry": {"type": "Point", "coordinates": ["0.1991568", "48.0029745"]}, "type": "Feature", "properties": {"street": "28 RUE COURTHARDY , 72000 Le Mans, France", "name": "02"}}, {"geometry": {"type": "Point", "coordinates": ["0.2722443", "47.9789785"]}, "type": "Feature", "properties": {"street": "2 ALLEE DE LA COUTURE , 72000 Le Mans, France", "name": "02"}}, {"geometry": {"type": "Point", "coordinates": ["0.2703369", "47.9787966"]}, "type": "Feature", "properties": {"street": "47 ALLEE DE LA COUTURE , 72000 Le Mans, France", "name": "02"}}, {"geometry": {"type": "Point", "coordinates": ["0.1949576", "48.0055062"]}, "type": "Feature", "properties": {"street": "1 PLACE DE L' EPERON , 72000 Le Mans, France", "name": "02"}}, {"geometry": {"type": "Point", "coordinates": ["0.1949576", "48.0055062"]}, "type": "Feature", "properties": {"street": "31 PLACE DE L' EPERON , 72000 Le Mans, France", "name": "02"}}, {"geometry": {"type": "Point", "coordinates": ["0.2001591", "48.0054265"]}, "type": "Feature", "properties": {"street": "1 AVENUE FRANCOIS MITTERRAND , 72000 Le Mans, France", "name": "02"}}, {"geometry": {"type": "Point", "coordinates": ["0.1991336", "48.002578"]}, "type": "Feature", "properties": {"street": "75 AVENUE FRANCOIS MITTERRAND , 72000 Le Mans, France", "name": "02"}}, {"geometry": {"type": "Point", "coordinates": ["0.190869", "48.0065937"]}, "type": "Feature", "properties": {"street": "1 RUE GAMBETTA , 72000 Le Mans, France", "name": "02"}}, {"geometry": {"type": "Point", "coordinates": ["0.1940488", "48.0050468"]}, "type": "Feature", "properties": {"street": "22 RUE GAMBETTA , 72000 Le Mans, France", "name": "02"}}, {"geometry": {"type": "Point", "coordinates": ["0.2024269", "48.0038811"]}, "type": "Feature", "properties": {"street": "1 AVENUE DU GENERAL DE GAULLE , 72000 Le Mans, France", "name": "02"}}, {"geometry": {"type": "Point", "coordinates": ["0.1983257", "48.0040512"]}, "type": "Feature", "properties": {"street": "74 AVENUE DU GENERAL DE GAULLE , 72000 Le Mans, France", "name": "02"}}, {"geometry": {"type": "Point", "coordinates": ["0.196077", "48.0021028"]}, "type": "Feature", "properties": {"street": "2 PONT DU GREFFIER , 72000 Le Mans, France", "name": "02"}}, {"geometry": {"type": "Point", "coordinates": ["0.196077", "48.0021028"]}, "type": "Feature", "properties": {"street": "2 PONT DU GREFFIER , 72000 Le Mans, France", "name": "02"}}, {"geometry": {"type": "Point", "coordinates": ["0.1609266", "48.0157803"]}, "type": "Feature", "properties": {"street": "2 PLACE DE L' HOPITAL , 72000 Le Mans, France", "name": "02"}}, {"geometry": {"type": "Point", "coordinates": ["0.1609266", "48.0157803"]}, "type": "Feature", "properties": {"street": "2 PLACE DE L' HOPITAL , 72000 Le Mans, France", "name": "02"}}, {"geometry": {"type": "Point", "coordinates": ["0.198326", "48.0053721"]}, "type": "Feature", "properties": {"street": "1 RUE DE LA JUIVERIE , 72000 Le Mans, France", "name": "02"}}, {"geometry": {"type": "Point", "coordinates": ["0.1976124", "48.0060109"]}, "type": "Feature", "properties": {"street": "22 RUE DE LA JUIVERIE , 72000 Le Mans, France", "name": "02"}}, {"geometry": {"type": "Point", "coordinates": ["0.1994414", "48.0045479"]}, "type": "Feature", "properties": {"street": "14 RUE DE LA PAILLE , 72000 Le Mans, France", "name": "02"}}, {"geometry": {"type": "Point", "coordinates": ["0.198656", "48.0051632"]}, "type": "Feature", "properties": {"street": "3 RUE DE LA PAILLE , 72000 Le Mans, France", "name": "02"}}, {"geometry": {"type": "Point", "coordinates": ["0.2065614", "48.0214549"]}, "type": "Feature", "properties": {"street": "1 RUE DE PARIS , 72000 Le Mans, France", "name": "02"}}, {"geometry": {"type": "Point", "coordinates": ["0.1981634", "48.0044559"]}, "type": "Feature", "properties": {"street": "6 RUE DE PARIS , 72000 Le Mans, France", "name": "02"}}, {"geometry": {"type": "Point", "coordinates": ["0.1980764", "48.0045426"]}, "type": "Feature", "properties": {"street": "1 RUE DE LA PERLE , 72000 Le Mans, France", "name": "02"}}, {"geometry": {"type": "Point", "coordinates": ["0.1980819", "48.0046626"]}, "type": "Feature", "properties": {"street": "2 RUE DE LA PERLE , 72000 Le Mans, France", "name": "02"}}, {"geometry": {"type": "Point", "coordinates": ["0.1958123", "48.0033574"]}, "type": "Feature", "properties": {"street": "1 RUE DU PORT , 72000 Le Mans, France", "name": "02"}}, {"geometry": {"type": "Point", "coordinates": ["0.1934878", "48.0027993"]}, "type": "Feature", "properties": {"street": "48 RUE DU PORT , 72000 Le Mans, France", "name": "02"}}, {"geometry": {"type": "Point", "coordinates": ["0.1978278", "48.0042328"]}, "type": "Feature", "properties": {"street": "1 PLACE DE LA REPUBLIQUE , 72000 Le Mans, France", "name": "02"}}, {"geometry": {"type": "Point", "coordinates": ["0.2038526", "48.0034651"]}, "type": "Feature", "properties": {"street": "49 PLACE DE LA REPUBLIQUE , 72000 Le Mans, France", "name": "02"}}, {"geometry": {"type": "Point", "coordinates": ["0.1985018", "48.0052244"]}, "type": "Feature", "properties": {"street": "1 RUE SAINT JACQUES , 72000 Le Mans, France", "name": "02"}}, {"geometry": {"type": "Point", "coordinates": ["0.2815316", "47.9859841"]}, "type": "Feature", "properties": {"street": "2 RUE SAINT JACQUES , 72000 Le Mans, France", "name": "02"}}, {"geometry": {"type": "Point", "coordinates": ["0.1980814", "48.0046498"]}, "type": "Feature", "properties": {"street": "1 RUE SAINT MARTIN , 72000 Le Mans, France", "name": "02"}}, {"geometry": {"type": "Point", "coordinates": ["0.1966563", "48.005627"]}, "type": "Feature", "properties": {"street": "24 RUE SAINT MARTIN , 72000 Le Mans, France", "name": "02"}}, {"geometry": {"type": "Point", "coordinates": ["0.2705578", "48.015824"]}, "type": "Feature", "properties": {"street": "2 RUE SAINTE MARIE , 72000 Le Mans, France", "name": "02"}}, {"geometry": {"type": "Point", "coordinates": ["0.2705578", "48.015824"]}, "type": "Feature", "properties": {"street": "2 RUE SAINTE MARIE , 72000 Le Mans, France", "name": "02"}}, {"geometry": {"type": "Point", "coordinates": ["0.2007404", "48.0052172"]}, "type": "Feature", "properties": {"street": "2 RUE DES URSULINES , 72000 Le Mans, France", "name": "02"}}, {"geometry": {"type": "Point", "coordinates": ["0.2019993", "48.005097"]}, "type": "Feature", "properties": {"street": "24 RUE DES URSULINES , 72000 Le Mans, France", "name": "02"}}, {"geometry": {"type": "Point", "coordinates": ["0.2007404", "48.0052172"]}, "type": "Feature", "properties": {"street": "2 SQUARE DES URSULINES , 72000 Le Mans, France", "name": "02"}}, {"geometry": {"type": "Point", "coordinates": ["0.2007404", "48.0052172"]}, "type": "Feature", "properties": {"street": "2 SQUARE DES URSULINES , 72000 Le Mans, France", "name": "02"}}, {"geometry": {"type": "Point", "coordinates": ["0.1938877", "48.0043131"]}, "type": "Feature", "properties": {"street": "1 RUE DU VERT GALANT , 72000 Le Mans, France", "name": "02"}}, {"geometry": {"type": "Point", "coordinates": ["0.1939701", "48.0045811"]}, "type": "Feature", "properties": {"street": "20 RUE DU VERT GALANT , 72000 Le Mans, France", "name": "02"}}, {"geometry": {"type": "Point", "coordinates": ["0.1965452", "48.0052337"]}, "type": "Feature", "properties": {"street": "12 RUE VICTOR BONHOMMET , 72000 Le Mans, France", "name": "02"}}, {"geometry": {"type": "Point", "coordinates": ["0.1966317", "48.004767"]}, "type": "Feature", "properties": {"street": "5 RUE VICTOR BONHOMMET , 72000 Le Mans, France", "name": "02"}}]