[{"geometry": {"type": "Point", "coordinates": ["0.1982915", "47.9970509"]}, "type": "Feature", "properties": {"street": "1 RUE BARY , 72000 Le Mans, France", "name": "06"}}, {"geometry": {"type": "Point", "coordinates": ["0.1990521", "47.9953113"]}, "type": "Feature", "properties": {"street": "64 RUE BARY , 72000 Le Mans, France", "name": "06"}}, {"geometry": {"type": "Point", "coordinates": ["0.1973014", "47.9967461"]}, "type": "Feature", "properties": {"street": "1 IMPASSE DE BELFORT , 72000 Le Mans, France", "name": "06"}}, {"geometry": {"type": "Point", "coordinates": ["0.1982081", "47.995833"]}, "type": "Feature", "properties": {"street": "6 IMPASSE DE BELFORT , 72000 Le Mans, France", "name": "06"}}, {"geometry": {"type": "Point", "coordinates": ["0.1973014", "47.9967461"]}, "type": "Feature", "properties": {"street": "1 RUE DE BELFORT , 72000 Le Mans, France", "name": "06"}}, {"geometry": {"type": "Point", "coordinates": ["0.1989304", "47.994284"]}, "type": "Feature", "properties": {"street": "81 RUE DE BELFORT , 72000 Le Mans, France", "name": "06"}}, {"geometry": {"type": "Point", "coordinates": ["0.1965981", "47.9954054"]}, "type": "Feature", "properties": {"street": "22 RUE BITCHE , 72000 Le Mans, France", "name": "06"}}, {"geometry": {"type": "Point", "coordinates": ["0.1977191", "47.9955982"]}, "type": "Feature", "properties": {"street": "6 RUE BITCHE , 72000 Le Mans, France", "name": "06"}}, {"geometry": {"type": "Point", "coordinates": ["0.1992646", "47.9994453"]}, "type": "Feature", "properties": {"street": "6 PONT DU BOURG BELE , 72000 Le Mans, France", "name": "06"}}, {"geometry": {"type": "Point", "coordinates": ["0.1992646", "47.9994453"]}, "type": "Feature", "properties": {"street": "6 PONT DU BOURG BELE , 72000 Le Mans, France", "name": "06"}}, {"geometry": {"type": "Point", "coordinates": ["0.1609266", "48.0157803"]}, "type": "Feature", "properties": {"street": "6 PLACE DU CAPITAINE ALFRED DREYFUS , 72000 Le Mans, France", "name": "06"}}, {"geometry": {"type": "Point", "coordinates": ["0.1609266", "48.0157803"]}, "type": "Feature", "properties": {"street": "6 PLACE DU CAPITAINE ALFRED DREYFUS , 72000 Le Mans, France", "name": "06"}}, {"geometry": {"type": "Point", "coordinates": ["0.1980715", "47.9950389"]}, "type": "Feature", "properties": {"street": "1 RUE DE CHATEAUDUN , 72000 Le Mans, France", "name": "06"}}, {"geometry": {"type": "Point", "coordinates": ["0.1977841", "47.9950897"]}, "type": "Feature", "properties": {"street": "6 RUE DE CHATEAUDUN , 72000 Le Mans, France", "name": "06"}}, {"geometry": {"type": "Point", "coordinates": ["0.2018332", "47.9953922"]}, "type": "Feature", "properties": {"street": "6 PONT COEFFORT , 72000 Le Mans, France", "name": "06"}}, {"geometry": {"type": "Point", "coordinates": ["0.2018332", "47.9953922"]}, "type": "Feature", "properties": {"street": "6 PONT COEFFORT , 72000 Le Mans, France", "name": "06"}}, {"geometry": {"type": "Point", "coordinates": ["0.2018332", "47.9953922"]}, "type": "Feature", "properties": {"street": "6 RUE COEFFORT , 72000 Le Mans, France", "name": "06"}}, {"geometry": {"type": "Point", "coordinates": ["0.1992988", "47.9946141"]}, "type": "Feature", "properties": {"street": "68 RUE COEFFORT , 72000 Le Mans, France", "name": "06"}}, {"geometry": {"type": "Point", "coordinates": ["0.1976647", "47.9960779"]}, "type": "Feature", "properties": {"street": "1 RUE EMILE BARRIER , 72000 Le Mans, France", "name": "06"}}, {"geometry": {"type": "Point", "coordinates": ["0.1972869", "47.9960132"]}, "type": "Feature", "properties": {"street": "6 RUE EMILE BARRIER , 72000 Le Mans, France", "name": "06"}}, {"geometry": {"type": "Point", "coordinates": ["0.1955764", "47.994769"]}, "type": "Feature", "properties": {"street": "1 BOULEVARD EMILE ZOLA , 72000 Le Mans, France", "name": "06"}}, {"geometry": {"type": "Point", "coordinates": ["0.2001288", "47.9935131"]}, "type": "Feature", "properties": {"street": "6 BOULEVARD EMILE ZOLA , 72000 Le Mans, France", "name": "06"}}, {"geometry": {"type": "Point", "coordinates": ["0.2010993", "47.9966818"]}, "type": "Feature", "properties": {"street": "3 PASSAGE DE LA GLACIERE , 72000 Le Mans, France", "name": "06"}}, {"geometry": {"type": "Point", "coordinates": ["0.2004946", "47.9964784"]}, "type": "Feature", "properties": {"street": "7 PASSAGE DE LA GLACIERE , 72000 Le Mans, France", "name": "06"}}, {"geometry": {"type": "Point", "coordinates": ["0.1993795", "47.995743"]}, "type": "Feature", "properties": {"street": "1 ALLEE JEAN DOLIGE , 72000 Le Mans, France", "name": "06"}}, {"geometry": {"type": "Point", "coordinates": ["0.1992011", "47.9961076"]}, "type": "Feature", "properties": {"street": "6 ALLEE JEAN DOLIGE , 72000 Le Mans, France", "name": "06"}}, {"geometry": {"type": "Point", "coordinates": ["0.200405", "47.996058"]}, "type": "Feature", "properties": {"street": "22 PASSAGE MANGEARD , 72000 Le Mans, France", "name": "06"}}, {"geometry": {"type": "Point", "coordinates": ["0.2005803", "47.9961017"]}, "type": "Feature", "properties": {"street": "7 PASSAGE MANGEARD , 72000 Le Mans, France", "name": "06"}}, {"geometry": {"type": "Point", "coordinates": ["0.2008977", "47.9960435"]}, "type": "Feature", "properties": {"street": "1 RUE MANGEARD , 72000 Le Mans, France", "name": "06"}}, {"geometry": {"type": "Point", "coordinates": ["0.198519", "47.9950229"]}, "type": "Feature", "properties": {"street": "78 RUE MANGEARD , 72000 Le Mans, France", "name": "06"}}, {"geometry": {"type": "Point", "coordinates": ["0.2002314", "47.9950569"]}, "type": "Feature", "properties": {"street": "19 RUE DE MULHOUSE , 72000 Le Mans, France", "name": "06"}}, {"geometry": {"type": "Point", "coordinates": ["0.1998205", "47.9952719"]}, "type": "Feature", "properties": {"street": "6 RUE DE MULHOUSE , 72000 Le Mans, France", "name": "06"}}, {"geometry": {"type": "Point", "coordinates": ["0.2016231", "47.9965577"]}, "type": "Feature", "properties": {"street": "172 RUE NATIONALE , 72000 Le Mans, France", "name": "06"}}, {"geometry": {"type": "Point", "coordinates": ["0.1992866", "47.9994535"]}, "type": "Feature", "properties": {"street": "6 RUE NATIONALE , 72000 Le Mans, France", "name": "06"}}, {"geometry": {"type": "Point", "coordinates": ["0.1968694", "47.9957037"]}, "type": "Feature", "properties": {"street": "3 RUE RIVAULT DE FLURANCE , 72000 Le Mans, France", "name": "06"}}, {"geometry": {"type": "Point", "coordinates": ["0.1969909", "47.9954415"]}, "type": "Feature", "properties": {"street": "9 RUE RIVAULT DE FLURANCE , 72000 Le Mans, France", "name": "06"}}, {"geometry": {"type": "Point", "coordinates": ["0.200686", "47.9978124"]}, "type": "Feature", "properties": {"street": "1 CITE ROGER , 72000 Le Mans, France", "name": "06"}}, {"geometry": {"type": "Point", "coordinates": ["0.1994877", "47.9974828"]}, "type": "Feature", "properties": {"street": "6 CITE ROGER , 72000 Le Mans, France", "name": "06"}}]