[{"geometry": {"type": "Point", "coordinates": ["0.1961689", "47.9959167"]}, "type": "Feature", "properties": {"street": "3 RUE D' ALSACE , 72000 Le Mans, France", "name": "05"}}, {"geometry": {"type": "Point", "coordinates": ["0.196546", "47.9946003"]}, "type": "Feature", "properties": {"street": "74 RUE D' ALSACE , 72000 Le Mans, France", "name": "05"}}, {"geometry": {"type": "Point", "coordinates": ["0.1963064", "47.9964938"]}, "type": "Feature", "properties": {"street": "1 IMPASSE DU BOURG BELE , 72000 Le Mans, France", "name": "05"}}, {"geometry": {"type": "Point", "coordinates": ["0.1961564", "47.9966648"]}, "type": "Feature", "properties": {"street": "5 IMPASSE DU BOURG BELE , 72000 Le Mans, France", "name": "05"}}, {"geometry": {"type": "Point", "coordinates": ["0.1977797", "47.997198"]}, "type": "Feature", "properties": {"street": "1 RUE DU BOURG BELE , 72000 Le Mans, France", "name": "05"}}, {"geometry": {"type": "Point", "coordinates": ["0.1984552", "47.9979708"]}, "type": "Feature", "properties": {"street": "5 RUE DU BOURG BELE , 72000 Le Mans, France", "name": "05"}}, {"geometry": {"type": "Point", "coordinates": ["0.1965542", "47.9996878"]}, "type": "Feature", "properties": {"street": "1 RUE DU CHANOINE J LELIEVRE , 72000 Le Mans, France", "name": "05"}}, {"geometry": {"type": "Point", "coordinates": ["0.1968713", "47.9993419"]}, "type": "Feature", "properties": {"street": "5 RUE DU CHANOINE J LELIEVRE , 72000 Le Mans, France", "name": "05"}}, {"geometry": {"type": "Point", "coordinates": ["0.198496", "47.9981802"]}, "type": "Feature", "properties": {"street": "1 PASSAGE CONTREAU , 72000 Le Mans, France", "name": "05"}}, {"geometry": {"type": "Point", "coordinates": ["0.1988186", "47.9980595"]}, "type": "Feature", "properties": {"street": "5 PASSAGE CONTREAU , 72000 Le Mans, France", "name": "05"}}, {"geometry": {"type": "Point", "coordinates": ["0.1948091", "47.9976537"]}, "type": "Feature", "properties": {"street": "1 RUE DE FLEURUS , 72000 Le Mans, France", "name": "05"}}, {"geometry": {"type": "Point", "coordinates": ["0.1953317", "47.9970609"]}, "type": "Feature", "properties": {"street": "5 RUE DE FLEURUS , 72000 Le Mans, France", "name": "05"}}, {"geometry": {"type": "Point", "coordinates": ["0.1950695", "47.9955937"]}, "type": "Feature", "properties": {"street": "29 RUE GASTELIER , 72000 Le Mans, France", "name": "05"}}, {"geometry": {"type": "Point", "coordinates": ["0.1944719", "47.9965073"]}, "type": "Feature", "properties": {"street": "7 RUE GASTELIER , 72000 Le Mans, France", "name": "05"}}, {"geometry": {"type": "Point", "coordinates": ["0.197562", "48.0012612"]}, "type": "Feature", "properties": {"street": "1 AVENUE DU GENERAL LECLERC , 72000 Le Mans, France", "name": "05"}}, {"geometry": {"type": "Point", "coordinates": ["0.1973424", "48.0010216"]}, "type": "Feature", "properties": {"street": "5 AVENUE DU GENERAL LECLERC , 72000 Le Mans, France", "name": "05"}}, {"geometry": {"type": "Point", "coordinates": ["0.1955313", "47.9949158"]}, "type": "Feature", "properties": {"street": "1 RUE DE LORRAINE , 72000 Le Mans, France", "name": "05"}}, {"geometry": {"type": "Point", "coordinates": ["0.1963229", "47.9954432"]}, "type": "Feature", "properties": {"street": "5 RUE DE LORRAINE , 72000 Le Mans, France", "name": "05"}}, {"geometry": {"type": "Point", "coordinates": ["0.1950124", "47.997912"]}, "type": "Feature", "properties": {"street": "1 RUE DU MIDI , 72000 Le Mans, France", "name": "05"}}, {"geometry": {"type": "Point", "coordinates": ["0.1970962", "47.9985317"]}, "type": "Feature", "properties": {"street": "50 RUE DU MIDI , 72000 Le Mans, France", "name": "05"}}, {"geometry": {"type": "Point", "coordinates": ["0.197755", "47.9983153"]}, "type": "Feature", "properties": {"street": "1 RUE NAVARIN , 72000 Le Mans, France", "name": "05"}}, {"geometry": {"type": "Point", "coordinates": ["0.1953628", "47.997278"]}, "type": "Feature", "properties": {"street": "63 RUE NAVARIN , 72000 Le Mans, France", "name": "05"}}, {"geometry": {"type": "Point", "coordinates": ["0.1946032", "47.9962562"]}, "type": "Feature", "properties": {"street": "24 IMPASSE RICHELIEU , 72000 Le Mans, France", "name": "05"}}, {"geometry": {"type": "Point", "coordinates": ["0.1940253", "47.9960634"]}, "type": "Feature", "properties": {"street": "5 IMPASSE RICHELIEU , 72000 Le Mans, France", "name": "05"}}, {"geometry": {"type": "Point", "coordinates": ["0.1972711", "48.0003519"]}, "type": "Feature", "properties": {"street": "1 RUE SARRAZIN , 72000 Le Mans, France", "name": "05"}}, {"geometry": {"type": "Point", "coordinates": ["0.1969819", "48.0001212"]}, "type": "Feature", "properties": {"street": "5 RUE SARRAZIN , 72000 Le Mans, France", "name": "05"}}, {"geometry": {"type": "Point", "coordinates": ["0.1951788", "48.0004262"]}, "type": "Feature", "properties": {"street": "5 IMPASSE WAGRAM , 72000 Le Mans, France", "name": "05"}}, {"geometry": {"type": "Point", "coordinates": ["0.1964651", "47.9990402"]}, "type": "Feature", "properties": {"street": "63 IMPASSE WAGRAM , 72000 Le Mans, France", "name": "05"}}, {"geometry": {"type": "Point", "coordinates": ["0.1951467", "48.0004925"]}, "type": "Feature", "properties": {"street": "1 RUE WAGRAM , 72000 Le Mans, France", "name": "05"}}, {"geometry": {"type": "Point", "coordinates": ["0.1951788", "48.0004262"]}, "type": "Feature", "properties": {"street": "5 RUE WAGRAM , 72000 Le Mans, France", "name": "05"}}]