[{"geometry": {"type": "Point", "coordinates": ["0.1945859", "48.0020799"]}, "type": "Feature", "properties": {"street": "3 PLACE D' ALGER , 72000 Le Mans, France", "name": "03"}}, {"geometry": {"type": "Point", "coordinates": ["0.1945859", "48.0020799"]}, "type": "Feature", "properties": {"street": "3 PLACE D' ALGER , 72000 Le Mans, France", "name": "03"}}, {"geometry": {"type": "Point", "coordinates": ["0.1945859", "48.0020799"]}, "type": "Feature", "properties": {"street": "1 RUE D' ALGER , 72000 Le Mans, France", "name": "03"}}, {"geometry": {"type": "Point", "coordinates": ["0.1926209", "48.0017741"]}, "type": "Feature", "properties": {"street": "51 RUE D' ALGER , 72000 Le Mans, France", "name": "03"}}, {"geometry": {"type": "Point", "coordinates": ["0.1953036", "48.002785"]}, "type": "Feature", "properties": {"street": "14 PASSAGE DES ARCADES , 72000 Le Mans, France", "name": "03"}}, {"geometry": {"type": "Point", "coordinates": ["0.1953036", "48.002785"]}, "type": "Feature", "properties": {"street": "5 PASSAGE DES ARCADES , 72000 Le Mans, France", "name": "03"}}, {"geometry": {"type": "Point", "coordinates": ["0.192485", "48.0018684"]}, "type": "Feature", "properties": {"street": "1 RUE D' ARCOLE , 72000 Le Mans, France", "name": "03"}}, {"geometry": {"type": "Point", "coordinates": ["0.1924433", "48.000537"]}, "type": "Feature", "properties": {"street": "43 RUE D' ARCOLE , 72000 Le Mans, France", "name": "03"}}, {"geometry": {"type": "Point", "coordinates": ["0.1988697", "48.0015169"]}, "type": "Feature", "properties": {"street": "1 PLACE ARISTIDE BRIAND , 72000 Le Mans, France", "name": "03"}}, {"geometry": {"type": "Point", "coordinates": ["0.1983879", "48.0016155"]}, "type": "Feature", "properties": {"street": "3 PLACE ARISTIDE BRIAND , 72000 Le Mans, France", "name": "03"}}, {"geometry": {"type": "Point", "coordinates": ["0.196292", "48.0010106"]}, "type": "Feature", "properties": {"street": "1 RUE AUVRAY , 72000 Le Mans, France", "name": "03"}}, {"geometry": {"type": "Point", "coordinates": ["0.1925348", "48.0001269"]}, "type": "Feature", "properties": {"street": "61 RUE AUVRAY , 72000 Le Mans, France", "name": "03"}}, {"geometry": {"type": "Point", "coordinates": ["0.2010988", "48.0024804"]}, "type": "Feature", "properties": {"street": "1 RUE BERTHELOT , 72000 Le Mans, France", "name": "03"}}, {"geometry": {"type": "Point", "coordinates": ["0.2020883", "48.0022043"]}, "type": "Feature", "properties": {"street": "36 RUE BERTHELOT , 72000 Le Mans, France", "name": "03"}}, {"geometry": {"type": "Point", "coordinates": ["0.1980434", "47.999359"]}, "type": "Feature", "properties": {"street": "19 IMPASSE BIGOT , 72000 Le Mans, France", "name": "03"}}, {"geometry": {"type": "Point", "coordinates": ["0.1988426", "47.9998393"]}, "type": "Feature", "properties": {"street": "3 IMPASSE BIGOT , 72000 Le Mans, France", "name": "03"}}, {"geometry": {"type": "Point", "coordinates": ["0.1981709", "47.9995283"]}, "type": "Feature", "properties": {"street": "10 RUE BIGOT , 72000 Le Mans, France", "name": "03"}}, {"geometry": {"type": "Point", "coordinates": ["0.1988426", "47.9998393"]}, "type": "Feature", "properties": {"street": "3 RUE BIGOT , 72000 Le Mans, France", "name": "03"}}, {"geometry": {"type": "Point", "coordinates": ["0.1963291", "48.0021073"]}, "type": "Feature", "properties": {"street": "1 RUE DE BONE , 72000 Le Mans, France", "name": "03"}}, {"geometry": {"type": "Point", "coordinates": ["0.1955985", "48.0018889"]}, "type": "Feature", "properties": {"street": "9 RUE DE BONE , 72000 Le Mans, France", "name": "03"}}, {"geometry": {"type": "Point", "coordinates": ["0.198364", "48.0003706"]}, "type": "Feature", "properties": {"street": "1 RUE DES CHAMPS , 72000 Le Mans, France", "name": "03"}}, {"geometry": {"type": "Point", "coordinates": ["0.1967257", "47.9995487"]}, "type": "Feature", "properties": {"street": "34 RUE DES CHAMPS , 72000 Le Mans, France", "name": "03"}}, {"geometry": {"type": "Point", "coordinates": ["0.1947332", "48.0027581"]}, "type": "Feature", "properties": {"street": "1 RUE DE CONSTANTINE , 72000 Le Mans, France", "name": "03"}}, {"geometry": {"type": "Point", "coordinates": ["0.1948804", "48.0024316"]}, "type": "Feature", "properties": {"street": "3 RUE DE CONSTANTINE , 72000 Le Mans, France", "name": "03"}}, {"geometry": {"type": "Point", "coordinates": ["0.1958965", "48.0011309"]}, "type": "Feature", "properties": {"street": "1 RUE DE LA CROCHARDIERE , 72000 Le Mans, France", "name": "03"}}, {"geometry": {"type": "Point", "coordinates": ["0.1930475", "48.0007966"]}, "type": "Feature", "properties": {"street": "58 RUE DE LA CROCHARDIERE , 72000 Le Mans, France", "name": "03"}}, {"geometry": {"type": "Point", "coordinates": ["0.1959342", "48.0030134"]}, "type": "Feature", "properties": {"street": "3 RUE DU DOCTEUR LEROY , 72000 Le Mans, France", "name": "03"}}, {"geometry": {"type": "Point", "coordinates": ["0.1972228", "48.0014698"]}, "type": "Feature", "properties": {"street": "53 RUE DU DOCTEUR LEROY , 72000 Le Mans, France", "name": "03"}}, {"geometry": {"type": "Point", "coordinates": ["0.1978735", "48.0013522"]}, "type": "Feature", "properties": {"street": "1 PLACE FRANKLIN ROOSEVELT , 72000 Le Mans, France", "name": "03"}}, {"geometry": {"type": "Point", "coordinates": ["0.1980398", "48.0013098"]}, "type": "Feature", "properties": {"street": "3 PLACE FRANKLIN ROOSEVELT , 72000 Le Mans, France", "name": "03"}}, {"geometry": {"type": "Point", "coordinates": ["0.1928941", "48.0008646"]}, "type": "Feature", "properties": {"street": "3 RUE DU GREFFIER , 72000 Le Mans, France", "name": "03"}}, {"geometry": {"type": "Point", "coordinates": ["0.1943104", "48.0013279"]}, "type": "Feature", "properties": {"street": "69 RUE DU GREFFIER , 72000 Le Mans, France", "name": "03"}}, {"geometry": {"type": "Point", "coordinates": ["0.1937798", "48.0026088"]}, "type": "Feature", "properties": {"street": "1 RUE DE LA HALLE AUX TOILES , 72000 Le Mans, France", "name": "03"}}, {"geometry": {"type": "Point", "coordinates": ["0.193743", "48.0024618"]}, "type": "Feature", "properties": {"street": "7 RUE DE LA HALLE AUX TOILES , 72000 Le Mans, France", "name": "03"}}, {"geometry": {"type": "Point", "coordinates": ["0.1986712", "48.0014477"]}, "type": "Feature", "properties": {"street": "1 RUE HAUREAU , 72000 Le Mans, France", "name": "03"}}, {"geometry": {"type": "Point", "coordinates": ["0.1985637", "48.0013529"]}, "type": "Feature", "properties": {"street": "3 RUE HAUREAU , 72000 Le Mans, France", "name": "03"}}, {"geometry": {"type": "Point", "coordinates": ["0.2025224", "48.0031458"]}, "type": "Feature", "properties": {"street": "1 RUE D' HAUTEVILLE , 72000 Le Mans, France", "name": "03"}}, {"geometry": {"type": "Point", "coordinates": ["0.201997", "48.003157"]}, "type": "Feature", "properties": {"street": "3 RUE D' HAUTEVILLE , 72000 Le Mans, France", "name": "03"}}, {"geometry": {"type": "Point", "coordinates": ["0.1928392", "48.0010466"]}, "type": "Feature", "properties": {"street": "1 RUE DE LODI , 72000 Le Mans, France", "name": "03"}}, {"geometry": {"type": "Point", "coordinates": ["0.1930608", "48.000374"]}, "type": "Feature", "properties": {"street": "30 RUE DE LODI , 72000 Le Mans, France", "name": "03"}}, {"geometry": {"type": "Point", "coordinates": ["0.1965077", "48.0036061"]}, "type": "Feature", "properties": {"street": "1 RUE DES MINIMES , 72000 Le Mans, France", "name": "03"}}, {"geometry": {"type": "Point", "coordinates": ["0.1977547", "48.0016406"]}, "type": "Feature", "properties": {"street": "41 RUE DES MINIMES , 72000 Le Mans, France", "name": "03"}}, {"geometry": {"type": "Point", "coordinates": ["0.1976179", "48.0033608"]}, "type": "Feature", "properties": {"street": "1 BOULEVARD RENE LEVASSEUR , 72000 Le Mans, France", "name": "03"}}, {"geometry": {"type": "Point", "coordinates": ["0.1976836", "48.0032896"]}, "type": "Feature", "properties": {"street": "3 BOULEVARD RENE LEVASSEUR , 72000 Le Mans, France", "name": "03"}}, {"geometry": {"type": "Point", "coordinates": ["0.196746", "48.0009988"]}, "type": "Feature", "properties": {"street": "1 RUE DE RICHEBOURG , 72000 Le Mans, France", "name": "03"}}, {"geometry": {"type": "Point", "coordinates": ["0.198683", "47.9989611"]}, "type": "Feature", "properties": {"street": "43 RUE DE RICHEBOURG , 72000 Le Mans, France", "name": "03"}}, {"geometry": {"type": "Point", "coordinates": ["0.1959136", "48.0011438"]}, "type": "Feature", "properties": {"street": "1 RUE DE RIVOLI , 72000 Le Mans, France", "name": "03"}}, {"geometry": {"type": "Point", "coordinates": ["0.1959665", "48.0008752"]}, "type": "Feature", "properties": {"street": "3 RUE DE RIVOLI , 72000 Le Mans, France", "name": "03"}}, {"geometry": {"type": "Point", "coordinates": ["0.197684", "48.0025574"]}, "type": "Feature", "properties": {"street": "12 RUE SAINT CHARLES , 72000 Le Mans, France", "name": "03"}}, {"geometry": {"type": "Point", "coordinates": ["0.1989576", "48.0029515"]}, "type": "Feature", "properties": {"street": "3 RUE SAINT CHARLES , 72000 Le Mans, France", "name": "03"}}, {"geometry": {"type": "Point", "coordinates": ["0.1923127", "48.0005105"]}, "type": "Feature", "properties": {"street": "3 PLACE STALINGRAD , 72000 Le Mans, France", "name": "03"}}, {"geometry": {"type": "Point", "coordinates": ["0.1923127", "48.0005105"]}, "type": "Feature", "properties": {"street": "3 PLACE STALINGRAD , 72000 Le Mans, France", "name": "03"}}, {"geometry": {"type": "Point", "coordinates": ["0.219319", "48.0002124"]}, "type": "Feature", "properties": {"street": "14 RUE DU TERTRE , 72000 Le Mans, France", "name": "03"}}, {"geometry": {"type": "Point", "coordinates": ["0.2034262", "48.013704"]}, "type": "Feature", "properties": {"street": "3 RUE DU TERTRE , 72000 Le Mans, France", "name": "03"}}]