[{"geometry": {"type": "Point", "coordinates": ["0.1884985", "47.925344"]}, "type": "Feature", "properties": {"street": "4 PLACE DU 8 MAI 1945 , 72000 Le Mans, France", "name": "04"}}, {"geometry": {"type": "Point", "coordinates": ["0.1884985", "47.925344"]}, "type": "Feature", "properties": {"street": "4 PLACE DU 8 MAI 1945 , 72000 Le Mans, France", "name": "04"}}, {"geometry": {"type": "Point", "coordinates": ["0.1948822", "47.9994657"]}, "type": "Feature", "properties": {"street": "1 RUE DE L' ALMA , 72000 Le Mans, France", "name": "04"}}, {"geometry": {"type": "Point", "coordinates": ["0.1948794", "47.999491"]}, "type": "Feature", "properties": {"street": "4 RUE DE L' ALMA , 72000 Le Mans, France", "name": "04"}}, {"geometry": {"type": "Point", "coordinates": ["0.193154", "48.0025419"]}, "type": "Feature", "properties": {"street": "4 RUE D' ARCOLE , 72000 Le Mans, France", "name": "04"}}, {"geometry": {"type": "Point", "coordinates": ["0.1925734", "48.0003173"]}, "type": "Feature", "properties": {"street": "53 RUE D' ARCOLE , 72000 Le Mans, France", "name": "04"}}, {"geometry": {"type": "Point", "coordinates": ["0.1945292", "48.0008997"]}, "type": "Feature", "properties": {"street": "3 RUE D' AUSTERLITZ , 72000 Le Mans, France", "name": "04"}}, {"geometry": {"type": "Point", "coordinates": ["0.19462", "48.0006964"]}, "type": "Feature", "properties": {"street": "5 RUE D' AUSTERLITZ , 72000 Le Mans, France", "name": "04"}}, {"geometry": {"type": "Point", "coordinates": ["0.1953129", "48.0005145"]}, "type": "Feature", "properties": {"street": "12 PASSAGE DES CASERNES , 72000 Le Mans, France", "name": "04"}}, {"geometry": {"type": "Point", "coordinates": ["0.1951601", "48.0004806"]}, "type": "Feature", "properties": {"street": "5 PASSAGE DES CASERNES , 72000 Le Mans, France", "name": "04"}}, {"geometry": {"type": "Point", "coordinates": ["0.1743643", "47.9797183"]}, "type": "Feature", "properties": {"street": "4 BOULEVARD DEMORIEUX , 72000 Le Mans, France", "name": "04"}}, {"geometry": {"type": "Point", "coordinates": ["0.1878521", "47.9973666"]}, "type": "Feature", "properties": {"street": "90 BOULEVARD DEMORIEUX , 72000 Le Mans, France", "name": "04"}}, {"geometry": {"type": "Point", "coordinates": ["0.1609266", "48.0157803"]}, "type": "Feature", "properties": {"street": "1 RUE D' ESSLING , 72000 Le Mans, France", "name": "04"}}, {"geometry": {"type": "Point", "coordinates": ["0.1609266", "48.0157803"]}, "type": "Feature", "properties": {"street": "4 RUE D' ESSLING , 72000 Le Mans, France", "name": "04"}}, {"geometry": {"type": "Point", "coordinates": ["0.1912649", "47.9981713"]}, "type": "Feature", "properties": {"street": "1 RUE DE FOISY , 72000 Le Mans, France", "name": "04"}}, {"geometry": {"type": "Point", "coordinates": ["0.1916322", "47.9981583"]}, "type": "Feature", "properties": {"street": "4 RUE DE FOISY , 72000 Le Mans, France", "name": "04"}}, {"geometry": {"type": "Point", "coordinates": ["0.1609266", "48.0157803"]}, "type": "Feature", "properties": {"street": "32 RUE D' IENA , 72000 Le Mans, France", "name": "04"}}, {"geometry": {"type": "Point", "coordinates": ["0.1920123", "48.0011452"]}, "type": "Feature", "properties": {"street": "1 BOULEVARD LAMARTINE , 72000 Le Mans, France", "name": "04"}}, {"geometry": {"type": "Point", "coordinates": ["0.190393", "47.9971571"]}, "type": "Feature", "properties": {"street": "81 BOULEVARD LAMARTINE , 72000 Le Mans, France", "name": "04"}}, {"geometry": {"type": "Point", "coordinates": ["0.1914211", "47.9986193"]}, "type": "Feature", "properties": {"street": "1 RUE LEBOINDRE , 72000 Le Mans, France", "name": "04"}}, {"geometry": {"type": "Point", "coordinates": ["0.1914274", "47.9986436"]}, "type": "Feature", "properties": {"street": "4 RUE LEBOINDRE , 72000 Le Mans, France", "name": "04"}}, {"geometry": {"type": "Point", "coordinates": ["0.193695", "47.9977777"]}, "type": "Feature", "properties": {"street": "1 RUE LECHESNE , 72000 Le Mans, France", "name": "04"}}, {"geometry": {"type": "Point", "coordinates": ["0.1926791", "47.9975"]}, "type": "Feature", "properties": {"street": "7 RUE LECHESNE , 72000 Le Mans, France", "name": "04"}}, {"geometry": {"type": "Point", "coordinates": ["0.1930084", "47.9976203"]}, "type": "Feature", "properties": {"street": "15 RUE LUSSON , 72000 Le Mans, France", "name": "04"}}, {"geometry": {"type": "Point", "coordinates": ["0.1926531", "47.9975177"]}, "type": "Feature", "properties": {"street": "8 RUE LUSSON , 72000 Le Mans, France", "name": "04"}}, {"geometry": {"type": "Point", "coordinates": ["0.1947406", "47.9999208"]}, "type": "Feature", "properties": {"street": "3 RUE MARENGO , 72000 Le Mans, France", "name": "04"}}, {"geometry": {"type": "Point", "coordinates": ["0.1955669", "47.9982687"]}, "type": "Feature", "properties": {"street": "49 RUE MARENGO , 72000 Le Mans, France", "name": "04"}}, {"geometry": {"type": "Point", "coordinates": ["0.1924647", "47.999174"]}, "type": "Feature", "properties": {"street": "1 RUE PAUL BELDANT , 72000 Le Mans, France", "name": "04"}}, {"geometry": {"type": "Point", "coordinates": ["0.1914397", "47.9992436"]}, "type": "Feature", "properties": {"street": "4 RUE PAUL BELDANT , 72000 Le Mans, France", "name": "04"}}, {"geometry": {"type": "Point", "coordinates": ["0.1923366", "47.9997378"]}, "type": "Feature", "properties": {"street": "1 RUE PAUL LIGNEUL , 72000 Le Mans, France", "name": "04"}}, {"geometry": {"type": "Point", "coordinates": ["0.1923366", "47.9997378"]}, "type": "Feature", "properties": {"street": "71 RUE PAUL LIGNEUL , 72000 Le Mans, France", "name": "04"}}, {"geometry": {"type": "Point", "coordinates": ["0.1926669", "47.9997549"]}, "type": "Feature", "properties": {"street": "1 RUE DE LA PELOUSE , 72000 Le Mans, France", "name": "04"}}, {"geometry": {"type": "Point", "coordinates": ["0.1938987", "47.9973688"]}, "type": "Feature", "properties": {"street": "84 RUE DE LA PELOUSE , 72000 Le Mans, France", "name": "04"}}, {"geometry": {"type": "Point", "coordinates": ["0.1937778", "47.9982323"]}, "type": "Feature", "properties": {"street": "1 RUE DU PERE MERSENNE , 72000 Le Mans, France", "name": "04"}}, {"geometry": {"type": "Point", "coordinates": ["0.1948558", "47.9984831"]}, "type": "Feature", "properties": {"street": "4 RUE DU PERE MERSENNE , 72000 Le Mans, France", "name": "04"}}, {"geometry": {"type": "Point", "coordinates": ["0.195746", "47.9947961"]}, "type": "Feature", "properties": {"street": "1 BOULEVARD ROBERT JARRY , 72000 Le Mans, France", "name": "04"}}, {"geometry": {"type": "Point", "coordinates": ["0.1924675", "47.996191"]}, "type": "Feature", "properties": {"street": "67 BOULEVARD ROBERT JARRY , 72000 Le Mans, France", "name": "04"}}, {"geometry": {"type": "Point", "coordinates": ["0.1775904", "47.9890261"]}, "type": "Feature", "properties": {"street": "1 RUE DE SARTHE , 72000 Le Mans, France", "name": "04"}}, {"geometry": {"type": "Point", "coordinates": ["0.1760274", "47.9879776"]}, "type": "Feature", "properties": {"street": "4 RUE DE SARTHE , 72000 Le Mans, France", "name": "04"}}, {"geometry": {"type": "Point", "coordinates": ["0.1922567", "48.0005051"]}, "type": "Feature", "properties": {"street": "4 PLACE STALINGRAD , 72000 Le Mans, France", "name": "04"}}, {"geometry": {"type": "Point", "coordinates": ["0.1922567", "48.0005051"]}, "type": "Feature", "properties": {"street": "4 PLACE STALINGRAD , 72000 Le Mans, France", "name": "04"}}]